{
"type": "FeatureCollection",
"name": "Paraderos_RUTA",
"crs": { "type": "name", "properties": { "name": "urn:ogc:def:crs:OGC:1.3:CRS84" } },
"features": [
{ "type": "Feature", "properties": { "LÍNEA": "Línea 3 Valsequillo- Blvd. 5 de Mayo- CAPU", "NOMBRE": "Terminal CAPU", "X": -98.202698650200006, "Y": 19.074254829699999 }, "geometry": { "type": "Point", "coordinates": [ -98.202698650200674, 19.074254829693796, 0.0 ] } },
{ "type": "Feature", "properties": { "LÍNEA": "Línea 3 Valsequillo- Blvd. 5 de Mayo- CAPU", "NOMBRE": "Boulevard Norte", "X": -98.196582920200001, "Y": 19.0734258502 }, "geometry": { "type": "Point", "coordinates": [ -98.19658292021515, 19.073425850185036, 0.0 ] } },
{ "type": "Feature", "properties": { "LÍNEA": "Línea 3 Valsequillo- Blvd. 5 de Mayo- CAPU", "NOMBRE": "Hidalgo", "X": -98.1925634304, "Y": 19.071295109899999 }, "geometry": { "type": "Point", "coordinates": [ -98.192563430392582, 19.071295109863275, 0.0 ] } },
{ "type": "Feature", "properties": { "LÍNEA": "Línea 3 Valsequillo- Blvd. 5 de Mayo- CAPU", "NOMBRE": "Unión", "X": -98.192051490099999, "Y": 19.0684289997 }, "geometry": { "type": "Point", "coordinates": [ -98.192051490128279, 19.068428999733122, 0.0 ] } },
{ "type": "Feature", "properties": { "LÍNEA": "Línea 3 Valsequillo- Blvd. 5 de Mayo- CAPU", "NOMBRE": "China Poblana", "X": -98.191141482999996, "Y": 19.0649712435 }, "geometry": { "type": "Point", "coordinates": [ -98.191141483045072, 19.064971243518649, 0.0 ] } },
{ "type": "Feature", "properties": { "LÍNEA": "Línea 3 Valsequillo- Blvd. 5 de Mayo- CAPU", "NOMBRE": "Santa María", "X": -98.191919325000001, "Y": 19.0610753803 }, "geometry": { "type": "Point", "coordinates": [ -98.191919324960821, 19.061075380254596, 0.0 ] } },
{ "type": "Feature", "properties": { "LÍNEA": "Línea 3 Valsequillo- Blvd. 5 de Mayo- CAPU", "NOMBRE": "San Antonio", "X": -98.19301375000001, "Y": 19.055166429700002 }, "geometry": { "type": "Point", "coordinates": [ -98.193013749997718, 19.055166429726771, 0.0 ] } },
{ "type": "Feature", "properties": { "LÍNEA": "Línea 3 Valsequillo- Blvd. 5 de Mayo- CAPU", "NOMBRE": "Xanenetla", "X": -98.190734370300007, "Y": 19.051648020399998 }, "geometry": { "type": "Point", "coordinates": [ -98.190734370303161, 19.051648020443572, 0.0 ] } },
{ "type": "Feature", "properties": { "LÍNEA": "Línea 3 Valsequillo- Blvd. 5 de Mayo- CAPU", "NOMBRE": "San Francisco", "X": -98.1897478904, "Y": 19.045920480100001 }, "geometry": { "type": "Point", "coordinates": [ -98.189747890424329, 19.045920480114788, 0.0 ] } },
{ "type": "Feature", "properties": { "LÍNEA": "Línea 3 Valsequillo- Blvd. 5 de Mayo- CAPU", "NOMBRE": "Analco B", "X": -98.1939151009, "Y": 19.040925574 }, "geometry": { "type": "Point", "coordinates": [ -98.193915100882478, 19.040925574024364, 0.0 ] } },
{ "type": "Feature", "properties": { "LÍNEA": "Línea 3 Valsequillo- Blvd. 5 de Mayo- CAPU", "NOMBRE": "Analco A", "X": -98.193379880400002, "Y": 19.040491819900002 }, "geometry": { "type": "Point", "coordinates": [ -98.193379880433, 19.040491819913679, 0.0 ] } },
{ "type": "Feature", "properties": { "LÍNEA": "Línea 3 Valsequillo- Blvd. 5 de Mayo- CAPU", "NOMBRE": "Clinica 2", "X": -98.195854149699997, "Y": 19.0390152001 }, "geometry": { "type": "Point", "coordinates": [ -98.195854149724582, 19.039015200084432, 0.0 ] } },
{ "type": "Feature", "properties": { "LÍNEA": "Línea 3 Valsequillo- Blvd. 5 de Mayo- CAPU", "NOMBRE": "Niños Heroes B", "X": -98.199005373999995, "Y": 19.033068684300002 }, "geometry": { "type": "Point", "coordinates": [ -98.199005374024665, 19.033068684315239, 0.0 ] } },
{ "type": "Feature", "properties": { "LÍNEA": "Línea 3 Valsequillo- Blvd. 5 de Mayo- CAPU", "NOMBRE": "Niños Heroes A", "X": -98.199744928399994, "Y": 19.033491410100002 }, "geometry": { "type": "Point", "coordinates": [ -98.199744928370464, 19.033491410063178, 0.0 ] } },
{ "type": "Feature", "properties": { "LÍNEA": "Línea 3 Valsequillo- Blvd. 5 de Mayo- CAPU", "NOMBRE": "Fiscalia", "X": -98.201633098200006, "Y": 19.030524621000001 }, "geometry": { "type": "Point", "coordinates": [ -98.201633098182839, 19.030524620954012, 0.0 ] } },
{ "type": "Feature", "properties": { "LÍNEA": "Línea 3 Valsequillo- Blvd. 5 de Mayo- CAPU", "NOMBRE": "Parque Juárez", "X": -98.203559863899997, "Y": 19.028623020800001 }, "geometry": { "type": "Point", "coordinates": [ -98.203559863941791, 19.028623020813964, 0.0 ] } },
{ "type": "Feature", "properties": { "LÍNEA": "Línea 3 Valsequillo- Blvd. 5 de Mayo- CAPU", "NOMBRE": "16 de Septiembre", "X": -98.206442674499996, "Y": 19.026636657200001 }, "geometry": { "type": "Point", "coordinates": [ -98.206442674510541, 19.026636657233148, 0.0 ] } },
{ "type": "Feature", "properties": { "LÍNEA": "Línea 3 Valsequillo- Blvd. 5 de Mayo- CAPU", "NOMBRE": "Capitan Carlos Camacho Espiritu B", "X": -98.20935752, "Y": 19.026181679699999 }, "geometry": { "type": "Point", "coordinates": [ -98.209357519992011, 19.026181679743097, 0.0 ] } },
{ "type": "Feature", "properties": { "LÍNEA": "Línea 3 Valsequillo- Blvd. 5 de Mayo- CAPU", "NOMBRE": "Capitan Carlos Camacho Espiritu A", "X": -98.213429872700004, "Y": 19.026226342600001 }, "geometry": { "type": "Point", "coordinates": [ -98.213429872720937, 19.026226342624415, 0.0 ] } },
{ "type": "Feature", "properties": { "LÍNEA": "Línea 3 Valsequillo- Blvd. 5 de Mayo- CAPU", "NOMBRE": "Cristal", "X": -98.212555765299996, "Y": 19.022411185300001 }, "geometry": { "type": "Point", "coordinates": [ -98.212555765267808, 19.022411185302438, 0.0 ] } },
{ "type": "Feature", "properties": { "LÍNEA": "Línea 3 Valsequillo- Blvd. 5 de Mayo- CAPU", "NOMBRE": "Bomberos", "X": -98.210330052200007, "Y": 19.016945444499999 }, "geometry": { "type": "Point", "coordinates": [ -98.210330052208803, 19.016945444506902, 0.0 ] } },
{ "type": "Feature", "properties": { "LÍNEA": "Línea 3 Valsequillo- Blvd. 5 de Mayo- CAPU", "NOMBRE": "San Baltazar", "X": -98.209107036500001, "Y": 19.0126640151 }, "geometry": { "type": "Point", "coordinates": [ -98.209107036493421, 19.01266401510351, 0.0 ] } },
{ "type": "Feature", "properties": { "LÍNEA": "Línea 3 Valsequillo- Blvd. 5 de Mayo- CAPU", "NOMBRE": "Margaritas", "X": -98.207928104100006, "Y": 19.0093060753 }, "geometry": { "type": "Point", "coordinates": [ -98.20792810414747, 19.009306075293054, 0.0 ] } },
{ "type": "Feature", "properties": { "LÍNEA": "Línea 3 Valsequillo- Blvd. 5 de Mayo- CAPU", "NOMBRE": "CU BUAP", "X": -98.204377225499996, "Y": 18.9992567454 }, "geometry": { "type": "Point", "coordinates": [ -98.204377225520659, 18.999256745418418, 0.0 ] } },
{ "type": "Feature", "properties": { "LÍNEA": "Línea 3 Valsequillo- Blvd. 5 de Mayo- CAPU", "NOMBRE": "Biblioteca Central", "X": -98.203204146800005, "Y": 18.995905695400001 }, "geometry": { "type": "Point", "coordinates": [ -98.203204146803586, 18.995905695392654, 0.0 ] } },
{ "type": "Feature", "properties": { "LÍNEA": "Línea 3 Valsequillo- Blvd. 5 de Mayo- CAPU", "NOMBRE": "Las Torres", "X": -98.202192840799995, "Y": 18.993926239499999 }, "geometry": { "type": "Point", "coordinates": [ -98.202192840788669, 18.993926239495508, 0.0 ] } },
{ "type": "Feature", "properties": { "LÍNEA": "Línea 3 Valsequillo- Blvd. 5 de Mayo- CAPU", "NOMBRE": "Xilotzingo", "X": -98.201044218899995, "Y": 18.990104542499999 }, "geometry": { "type": "Point", "coordinates": [ -98.201044218930107, 18.990104542499509, 0.0 ] } },
{ "type": "Feature", "properties": { "LÍNEA": "Línea 3 Valsequillo- Blvd. 5 de Mayo- CAPU", "NOMBRE": "Arboledas", "X": -98.199363866300004, "Y": 18.9861405527 }, "geometry": { "type": "Point", "coordinates": [ -98.199363866338715, 18.98614055265714, 0.0 ] } },
{ "type": "Feature", "properties": { "LÍNEA": "Línea 3 Valsequillo- Blvd. 5 de Mayo- CAPU", "NOMBRE": "La Fragua", "X": -98.196695154400004, "Y": 18.979018208300001 }, "geometry": { "type": "Point", "coordinates": [ -98.196695154414314, 18.979018208306659, 0.0 ] } },
{ "type": "Feature", "properties": { "LÍNEA": "Línea 1. Tlaxcalancingo - Chachapa", "NOMBRE": "Emiliano Zapata", "X": -98.26264092, "Y": 19.033478098 }, "geometry": { "type": "Point", "coordinates": [ -98.262640919999967, 19.033478098000046, 0.0 ] } },
{ "type": "Feature", "properties": { "LÍNEA": "Línea 1. Tlaxcalancingo - Chachapa", "NOMBRE": "Carmen Serdán", "X": -98.251384911000002, "Y": 19.036336079000002 }, "geometry": { "type": "Point", "coordinates": [ -98.251384910999946, 19.036336079, 0.0 ] } },
{ "type": "Feature", "properties": { "LÍNEA": "Línea 1. Tlaxcalancingo - Chachapa", "NOMBRE": "Casa de Ángeles", "X": -98.258374924999998, "Y": 19.035035974 }, "geometry": { "type": "Point", "coordinates": [ -98.258374924999941, 19.035035974000042, 0.0 ] } },
{ "type": "Feature", "properties": { "LÍNEA": "Línea 1. Tlaxcalancingo - Chachapa", "NOMBRE": "Hospital del Niño Poblano", "X": -98.247656590999995, "Y": 19.03721593 }, "geometry": { "type": "Point", "coordinates": [ -98.247656590999952, 19.037215930000063, 0.0 ] } },
{ "type": "Feature", "properties": { "LÍNEA": "Línea 1. Tlaxcalancingo - Chachapa", "NOMBRE": "Estrellas del Sur", "X": -98.241725454999994, "Y": 19.039292741000001 }, "geometry": { "type": "Point", "coordinates": [ -98.241725454999937, 19.039292741000054, 0.0 ] } },
{ "type": "Feature", "properties": { "LÍNEA": "Línea 1. Tlaxcalancingo - Chachapa", "NOMBRE": "Las Ánimas I y II", "X": -98.234968280999993, "Y": 19.045576879 }, "geometry": { "type": "Point", "coordinates": [ -98.234968280999965, 19.045576879000045, 0.0 ] } },
{ "type": "Feature", "properties": { "LÍNEA": "Línea 1. Tlaxcalancingo - Chachapa", "NOMBRE": "25 Poniente", "X": -98.232245671000001, "Y": 19.048871812000002 }, "geometry": { "type": "Point", "coordinates": [ -98.232245670999987, 19.048871812000076, 0.0 ] } },
{ "type": "Feature", "properties": { "LÍNEA": "Línea 1. Tlaxcalancingo - Chachapa", "NOMBRE": "Matamoros", "X": -98.227522034000003, "Y": 19.05099454 }, "geometry": { "type": "Point", "coordinates": [ -98.227522033999946, 19.050994540000033, 0.0 ] } },
{ "type": "Feature", "properties": { "LÍNEA": "Línea 1. Tlaxcalancingo - Chachapa", "NOMBRE": "Defensores de la República", "X": -98.21176554, "Y": 19.057371183000001 }, "geometry": { "type": "Point", "coordinates": [ -98.211765539999988, 19.057371183000043, 0.0 ] } },
{ "type": "Feature", "properties": { "LÍNEA": "Línea 1. Tlaxcalancingo - Chachapa", "NOMBRE": "18 Poniente", "X": -98.209739709000004, "Y": 19.058487789000001 }, "geometry": { "type": "Point", "coordinates": [ -98.209739708999962, 19.058487789000026, 0.0 ] } },
{ "type": "Feature", "properties": { "LÍNEA": "Línea 1. Tlaxcalancingo - Chachapa", "NOMBRE": "Pestalozzi", "X": -98.205493183000002, "Y": 19.060739986000002 }, "geometry": { "type": "Point", "coordinates": [ -98.205493182999987, 19.060739986000051, 0.0 ] } },
{ "type": "Feature", "properties": { "LÍNEA": "Línea 1. Tlaxcalancingo - Chachapa", "NOMBRE": "Santa Anita", "X": -98.201752568000003, "Y": 19.062312822 }, "geometry": { "type": "Point", "coordinates": [ -98.201752567999961, 19.062312822000024, 0.0 ] } },
{ "type": "Feature", "properties": { "LÍNEA": "Línea 1. Tlaxcalancingo - Chachapa", "NOMBRE": "Constitución de 1917", "X": -98.1976981, "Y": 19.063367528000001 }, "geometry": { "type": "Point", "coordinates": [ -98.197698099999968, 19.063367528000072, 0.0 ] } },
{ "type": "Feature", "properties": { "LÍNEA": "Línea 1. Tlaxcalancingo - Chachapa", "NOMBRE": "El Rayito", "X": -98.194705662999993, "Y": 19.064216339000001 }, "geometry": { "type": "Point", "coordinates": [ -98.194705662999979, 19.064216339000041, 0.0 ] } },
{ "type": "Feature", "properties": { "LÍNEA": "Línea 1. Tlaxcalancingo - Chachapa", "NOMBRE": "China Poblana", "X": -98.192347128999998, "Y": 19.064765227 }, "geometry": { "type": "Point", "coordinates": [ -98.192347128999984, 19.064765227000063, 0.0 ] } },
{ "type": "Feature", "properties": { "LÍNEA": "Línea 1. Tlaxcalancingo - Chachapa", "NOMBRE": "Los Lavaderos", "X": -98.188191482999997, "Y": 19.065038483 }, "geometry": { "type": "Point", "coordinates": [ -98.188191482999969, 19.065038483000023, 0.0 ] } },
{ "type": "Feature", "properties": { "LÍNEA": "Línea 1. Tlaxcalancingo - Chachapa", "NOMBRE": "Puente Zaragoza", "X": -98.183044358999993, "Y": 19.064787123 }, "geometry": { "type": "Point", "coordinates": [ -98.18304435899995, 19.064787123000038, 0.0 ] } },
{ "type": "Feature", "properties": { "LÍNEA": "Línea 1. Tlaxcalancingo - Chachapa", "NOMBRE": "Ignacio Zaragoza", "X": -98.179135201999998, "Y": 19.064360019 }, "geometry": { "type": "Point", "coordinates": [ -98.179135201999941, 19.064360019000063, 0.0 ] } },
{ "type": "Feature", "properties": { "LÍNEA": "Línea 1. Tlaxcalancingo - Chachapa", "NOMBRE": "Los Fuertes", "X": -98.175849088000007, "Y": 19.063990188999998 }, "geometry": { "type": "Point", "coordinates": [ -98.17584908799995, 19.063990189000037, 0.0 ] } },
{ "type": "Feature", "properties": { "LÍNEA": "Línea 1. Tlaxcalancingo - Chachapa", "NOMBRE": "Tecnológico", "X": -98.17198814, "Y": 19.063488876000001 }, "geometry": { "type": "Point", "coordinates": [ -98.171988139999939, 19.063488876000065, 0.0 ] } },
{ "type": "Feature", "properties": { "LÍNEA": "Línea 1. Tlaxcalancingo - Chachapa", "NOMBRE": "La Ciénega", "X": -98.168333231999995, "Y": 19.062817909 }, "geometry": { "type": "Point", "coordinates": [ -98.168333231999952, 19.062817909000035, 0.0 ] } },
{ "type": "Feature", "properties": { "LÍNEA": "Línea 1. Tlaxcalancingo - Chachapa", "NOMBRE": "18 de Noviembre", "X": -98.159447956999998, "Y": 19.061839676000002 }, "geometry": { "type": "Point", "coordinates": [ -98.159447956999941, 19.061839676000037, 0.0 ] } },
{ "type": "Feature", "properties": { "LÍNEA": "Línea 1. Tlaxcalancingo - Chachapa", "NOMBRE": "La Resurrección", "X": -98.155205248000001, "Y": 19.06118151 }, "geometry": { "type": "Point", "coordinates": [ -98.155205247999959, 19.06118151000004, 0.0 ] } },
{ "type": "Feature", "properties": { "LÍNEA": "Línea 1. Tlaxcalancingo - Chachapa", "NOMBRE": "Universidad Tecnológica", "X": -98.149182334000002, "Y": 19.060103344000002 }, "geometry": { "type": "Point", "coordinates": [ -98.149182333999988, 19.06010334400003, 0.0 ] } },
{ "type": "Feature", "properties": { "LÍNEA": "Línea 1. Tlaxcalancingo - Chachapa", "NOMBRE": "Rivera Anaya", "X": -98.144415722000005, "Y": 19.058350195 }, "geometry": { "type": "Point", "coordinates": [ -98.144415721999962, 19.058350195000056, 0.0 ] } },
{ "type": "Feature", "properties": { "LÍNEA": "Línea 1. Tlaxcalancingo - Chachapa", "NOMBRE": "Amalucan", "X": -98.139303483000006, "Y": 19.056677657000002 }, "geometry": { "type": "Point", "coordinates": [ -98.139303483, 19.056677657000023, 0.0 ] } },
{ "type": "Feature", "properties": { "LÍNEA": "Línea 1. Tlaxcalancingo - Chachapa", "NOMBRE": "Galaxia", "X": -98.132261306999993, "Y": 19.055281219000001 }, "geometry": { "type": "Point", "coordinates": [ -98.132261306999965, 19.055281219000062, 0.0 ] } },
{ "type": "Feature", "properties": { "LÍNEA": "Línea 1. Tlaxcalancingo - Chachapa", "NOMBRE": "El Pilar", "X": -98.127866494000003, "Y": 19.054755146000002 }, "geometry": { "type": "Point", "coordinates": [ -98.127866493999989, 19.05475514600003, 0.0 ] } },
{ "type": "Feature", "properties": { "LÍNEA": "Línea 1. Tlaxcalancingo - Chachapa", "NOMBRE": "Santa Mago", "X": -98.119832801000001, "Y": 19.05394071 }, "geometry": { "type": "Point", "coordinates": [ -98.119832800999973, 19.053940710000063, 0.0 ] } },
{ "type": "Feature", "properties": { "LÍNEA": "Línea 1. Tlaxcalancingo - Chachapa", "NOMBRE": "Mixatlac", "X": -98.123836798, "Y": 19.054287165000002 }, "geometry": { "type": "Point", "coordinates": [ -98.123836797999957, 19.054287165000066, 0.0 ] } },
{ "type": "Feature", "properties": { "LÍNEA": "Línea 1. Tlaxcalancingo - Chachapa", "NOMBRE": "Chachapa", "X": -98.114645500999998, "Y": 19.05410391 }, "geometry": { "type": "Point", "coordinates": [ -98.114645500999984, 19.054103910000038, 0.0 ] } },
{ "type": "Feature", "properties": { "LÍNEA": "Línea 1. Tlaxcalancingo - Chachapa", "NOMBRE": "Juárez Serdán", "X": -98.220970373, "Y": 19.056188746 }, "geometry": { "type": "Point", "coordinates": [ -98.220970372999943, 19.056188746000039, 0.0 ] } },
{ "type": "Feature", "properties": { "LÍNEA": "Línea 2. 11 Norte - Sur", "NOMBRE": "Diagonal Oriente", "X": -98.195269597999996, "Y": 19.063504602999998 }, "geometry": { "type": "Point", "coordinates": [ -98.195269597999982, 19.063504603000066, 0.0 ] } },
{ "type": "Feature", "properties": { "LÍNEA": "Línea 2. 11 Norte - Sur", "NOMBRE": "Diagonal Poniente", "X": -98.197428591999994, "Y": 19.063217966 }, "geometry": { "type": "Point", "coordinates": [ -98.197428591999937, 19.063217966000025, 0.0 ] } },
{ "type": "Feature", "properties": { "LÍNEA": "Línea 2. 11 Norte - Sur", "NOMBRE": "Esperanza", "X": -98.199647009000003, "Y": 19.059334791000001 }, "geometry": { "type": "Point", "coordinates": [ -98.199647008999989, 19.059334791000023, 0.0 ] } },
{ "type": "Feature", "properties": { "LÍNEA": "Línea 2. 11 Norte - Sur", "NOMBRE": "Héroes", "X": -98.198843138000001, "Y": 19.057187413000001 }, "geometry": { "type": "Point", "coordinates": [ -98.198843137999972, 19.057187413000065, 0.0 ] } },
{ "type": "Feature", "properties": { "LÍNEA": "Línea 2. 11 Norte - Sur", "NOMBRE": "Mercado de Sabores", "X": -98.205040335700005, "Y": 19.0503840304 }, "geometry": { "type": "Point", "coordinates": [ -98.205040335676046, 19.050384030441375, 0.0 ] } },
{ "type": "Feature", "properties": { "LÍNEA": "Línea 2. 11 Norte - Sur", "NOMBRE": "Héroes de la Reforma", "X": -98.208663183, "Y": 19.044229687000001 }, "geometry": { "type": "Point", "coordinates": [ -98.208663182999942, 19.044229687000055, 0.0 ] } },
{ "type": "Feature", "properties": { "LÍNEA": "Línea 2. 11 Norte - Sur", "NOMBRE": "Revolución", "X": -98.211757984000002, "Y": 19.038621351 }, "geometry": { "type": "Point", "coordinates": [ -98.211757983999973, 19.038621351000071, 0.0 ] } },
{ "type": "Feature", "properties": { "LÍNEA": "Línea 2. 11 Norte - Sur", "NOMBRE": "Espinosa Yglesias", "X": -98.213409201999994, "Y": 19.036142333000001 }, "geometry": { "type": "Point", "coordinates": [ -98.21340920199998, 19.036142333000043, 0.0 ] } },
{ "type": "Feature", "properties": { "LÍNEA": "Línea 2. 11 Norte - Sur", "NOMBRE": "Panteones", "X": -98.215027012999997, "Y": 19.033923609 }, "geometry": { "type": "Point", "coordinates": [ -98.21502701299994, 19.033923609000048, 0.0 ] } },
{ "type": "Feature", "properties": { "LÍNEA": "Línea 2. 11 Norte - Sur", "NOMBRE": "Juan Pablo II", "X": -98.221057098000003, "Y": 19.026806546 }, "geometry": { "type": "Point", "coordinates": [ -98.22105709799996, 19.026806546000039, 0.0 ] } },
{ "type": "Feature", "properties": { "LÍNEA": "Línea 2. 11 Norte - Sur", "NOMBRE": "Río Atoyac", "X": -98.226179388999995, "Y": 19.021632115 }, "geometry": { "type": "Point", "coordinates": [ -98.226179388999981, 19.021632115000042, 0.0 ] } },
{ "type": "Feature", "properties": { "LÍNEA": "Línea 2. 11 Norte - Sur", "NOMBRE": "IMSS", "X": -98.228780392999994, "Y": 19.018935464999998 }, "geometry": { "type": "Point", "coordinates": [ -98.228780392999965, 19.018935465000027, 0.0 ] } },
{ "type": "Feature", "properties": { "LÍNEA": "Línea 2. 11 Norte - Sur", "NOMBRE": "Tecamachalco", "X": -98.235342533999997, "Y": 19.010028074000001 }, "geometry": { "type": "Point", "coordinates": [ -98.235342533999983, 19.010028074000051, 0.0 ] } },
{ "type": "Feature", "properties": { "LÍNEA": "Línea 2. 11 Norte - Sur", "NOMBRE": "Tarascos", "X": -98.238707133999995, "Y": 19.003806868000002 }, "geometry": { "type": "Point", "coordinates": [ -98.238707133999981, 19.003806868000026, 0.0 ] } },
{ "type": "Feature", "properties": { "LÍNEA": "Línea 2. 11 Norte - Sur", "NOMBRE": "Yucatán", "X": -98.240821878999995, "Y": 18.997616408 }, "geometry": { "type": "Point", "coordinates": [ -98.240821878999952, 18.997616408000056, 0.0 ] } },
{ "type": "Feature", "properties": { "LÍNEA": "Línea 2. 11 Norte - Sur", "NOMBRE": "Periférico", "X": -98.246302599000003, "Y": 18.990420071 }, "geometry": { "type": "Point", "coordinates": [ -98.246302598999989, 18.990420071000067, 0.0 ] } },
{ "type": "Feature", "properties": { "LÍNEA": "Línea 2. 11 Norte - Sur", "NOMBRE": "C.C. Centro Sur", "X": -98.247802721, "Y": 18.988439016000001 }, "geometry": { "type": "Point", "coordinates": [ -98.247802720999971, 18.988439016000026, 0.0 ] } },
{ "type": "Feature", "properties": { "LÍNEA": "Línea 2. 11 Norte - Sur", "NOMBRE": "Pino Suárez", "X": -98.255915169000005, "Y": 18.977798022999998 }, "geometry": { "type": "Point", "coordinates": [ -98.255915169, 18.977798023000044, 0.0 ] } },
{ "type": "Feature", "properties": { "LÍNEA": "Línea 2. 11 Norte - Sur", "NOMBRE": "Azaleas", "X": -98.258491910999993, "Y": 18.975190881 }, "geometry": { "type": "Point", "coordinates": [ -98.258491910999965, 18.975190881000074, 0.0 ] } },
{ "type": "Feature", "properties": { "LÍNEA": "Línea 2. 11 Norte - Sur", "NOMBRE": "Tabachines", "X": -98.261370381000006, "Y": 18.972970891 }, "geometry": { "type": "Point", "coordinates": [ -98.261370380999949, 18.972970891000042, 0.0 ] } },
{ "type": "Feature", "properties": { "LÍNEA": "Línea 2. 11 Norte - Sur", "NOMBRE": "Terminal Margaritas", "X": -98.265205084499996, "Y": 18.969638809900001 }, "geometry": { "type": "Point", "coordinates": [ -98.265205084539218, 18.969638809911231, 0.0 ] } },
{ "type": "Feature", "properties": { "LÍNEA": "Línea 1. Tlaxcalancingo - Chachapa", "NOMBRE": "Terminal Tlaxcalancingo", "X": -98.268755636999998, "Y": 19.032942066 }, "geometry": { "type": "Point", "coordinates": [ -98.26875563699997, 19.032942066000036, 0.0 ] } },
{ "type": "Feature", "properties": { "LÍNEA": "Línea 1. Tlaxcalancingo - Chachapa", "NOMBRE": "Terminal Chachapa", "X": -98.112309687000007, "Y": 19.054702178 }, "geometry": { "type": "Point", "coordinates": [ -98.112309686999936, 19.054702178000078, 0.0 ] } },
{ "type": "Feature", "properties": { "LÍNEA": "Línea 1. Tlaxcalancingo - Chachapa", "NOMBRE": "Hermanos Serdán", "X": -98.218106172999995, "Y": 19.059352451 }, "geometry": { "type": "Point", "coordinates": [ -98.218106172999967, 19.059352451000056, 0.0 ] } },
{ "type": "Feature", "properties": { "LÍNEA": "Línea 1. Tlaxcalancingo - Chachapa", "NOMBRE": "San Alejandro", "X": -98.215920776000004, "Y": 19.058236729000001 }, "geometry": { "type": "Point", "coordinates": [ -98.215920775999962, 19.05823672900004, 0.0 ] } },
{ "type": "Feature", "properties": { "LÍNEA": "Línea 1. Tlaxcalancingo - Chachapa", "NOMBRE": "Bosques", "X": -98.13636886, "Y": 19.056135777000001 }, "geometry": { "type": "Point", "coordinates": [ -98.136368859999948, 19.056135777000065, 0.0 ] } },
{ "type": "Feature", "properties": { "LÍNEA": "Línea 2. 11 Norte - Sur", "NOMBRE": "Independencia", "X": -98.253748604999998, "Y": 18.980651069 }, "geometry": { "type": "Point", "coordinates": [ -98.253748604999942, 18.980651069000032, 0.0 ] } },
{ "type": "Feature", "properties": { "LÍNEA": "Línea 2. 11 Norte - Sur", "NOMBRE": "Olivos", "X": -98.250980425999998, "Y": 18.984297439 }, "geometry": { "type": "Point", "coordinates": [ -98.250980425999956, 18.984297439000041, 0.0 ] } },
{ "type": "Feature", "properties": { "LÍNEA": "Línea 2. 11 Norte - Sur", "NOMBRE": "San Bartolo", "X": -98.243364333000002, "Y": 18.994282351 }, "geometry": { "type": "Point", "coordinates": [ -98.243364332999988, 18.994282351000042, 0.0 ] } },
{ "type": "Feature", "properties": { "LÍNEA": "Línea 2. 11 Norte - Sur", "NOMBRE": "Torrecillas", "X": -98.237905882999996, "Y": 19.00580054 }, "geometry": { "type": "Point", "coordinates": [ -98.237905882999939, 19.005800540000056, 0.0 ] } },
{ "type": "Feature", "properties": { "LÍNEA": "Línea 2. 11 Norte - Sur", "NOMBRE": "Club de Golf", "X": -98.233439896999997, "Y": 19.013003393000002 }, "geometry": { "type": "Point", "coordinates": [ -98.233439896999982, 19.013003393000073, 0.0 ] } },
{ "type": "Feature", "properties": { "LÍNEA": "Línea 2. 11 Norte - Sur", "NOMBRE": "Cúmulo de Virgo", "X": -98.231866713000002, "Y": 19.015434787 }, "geometry": { "type": "Point", "coordinates": [ -98.231866712999988, 19.015434787000054, 0.0 ] } },
{ "type": "Feature", "properties": { "LÍNEA": "Línea 2. 11 Norte - Sur", "NOMBRE": "Alpha", "X": -98.218150439, "Y": 19.029705542 }, "geometry": { "type": "Point", "coordinates": [ -98.218150438999942, 19.029705542000052, 0.0 ] } },
{ "type": "Feature", "properties": { "LÍNEA": "Línea 2. 11 Norte - Sur", "NOMBRE": "Santiago", "X": -98.210413199000001, "Y": 19.041120904 }, "geometry": { "type": "Point", "coordinates": [ -98.210413198999959, 19.041120904000021, 0.0 ] } },
{ "type": "Feature", "properties": { "LÍNEA": "Línea 2. 11 Norte - Sur", "NOMBRE": "Paseo Bravo", "X": -98.207409827000006, "Y": 19.046394441 }, "geometry": { "type": "Point", "coordinates": [ -98.207409827, 19.046394441000075, 0.0 ] } },
{ "type": "Feature", "properties": { "LÍNEA": "Línea 2. 11 Norte - Sur", "NOMBRE": "Museo del Ferrocarril", "X": -98.202605704999996, "Y": 19.054640031999998 }, "geometry": { "type": "Point", "coordinates": [ -98.202605704999939, 19.054640032000076, 0.0 ] } },
{ "type": "Feature", "properties": { "LÍNEA": "Línea 1. Tlaxcalancingo - Chachapa", "NOMBRE": "La Rosa", "X": -98.163876946800002, "Y": 19.062436798 }, "geometry": { "type": "Point", "coordinates": [ -98.163876946772362, 19.062436798033271, 0.0 ] } },
{ "type": "Feature", "properties": { "LÍNEA": "Línea 2. 11 Norte - Sur", "NOMBRE": "Limones", "X": -98.267448702699994, "Y": 18.964253038199999 }, "geometry": null },
{ "type": "Feature", "properties": { "LÍNEA": "Línea 2. 11 Norte - Sur", "NOMBRE": "Zaragoza", "X": -98.228111057700005, "Y": 19.020274330399999 }, "geometry": { "type": "Point", "coordinates": [ -98.228111057675207, 19.020274330442145, 0.0 ] } },
{ "type": "Feature", "properties": { "LÍNEA": "Línea 2. 11 Norte - Sur", "NOMBRE": "Niño Poblano", "X": -98.222504282299994, "Y": 19.0252972563 }, "geometry": { "type": "Point", "coordinates": [ -98.222504282305252, 19.025297256329928, 0.0 ] } }
]
}
